{"MainData":[{"state":"Andhra Pradesh","latitude" : 17.3850    ,"longitude" : 78.4867   , "total" : 10 " ,"data":[{"name":"Ramdin Varma","state":"Andhra Pradesh","address":"Vijaywada","mobile":1234567890,"adhar_no":1234567890,"pan_no":"ASDF123456"},{"name":"sharat chandran","state":"Andhra Pradesh","address":"Nellore","mobile":1234567890,"adhar_no":1234567890,"pan_no":"ASDF123456"},{"name":"birender mandal","state":"Andhra Pradesh","address":"Tirupati","mobile":1234567890,"adhar_no":1234567890,"pan_no":"ASDF123456"}]},{"state":"Bihar","latitude" : 25.5941    ,"longitude" : 85.1376   , "total" : 20 ","data":[{"name":"amit","state":"Bihar","address":"Patana","mobile":1234567890,"adhar_no":1234567890,"pan_no":"ASDF123456"},{"name":"Kushal","state":"Bihar","address":"Mujjafarpur","mobile":1234567890,"adhar_no":1234567890,"pan_no":"ASDF123456"}]},{"state":"Gujarat","latitude" : 23.2156    ,"longitude" : 72.6369   , "total" : 23 ","data":[{"name":"Kasid","state":"Gujarat","address":"Surat","mobile":1234567890,"adhar_no":1234567890,"pan_no":"ASDF123456"},{"name":"Shiv Prakash","state":"Gujarat","address":"Gandhinagar","mobile":1234567890,"adhar_no":1234567890,"pan_no":"ASDF123456"}]},{"state":"Haryana","latitude" : 29.0588   ,"longitude" : 76.0856   , "total" : 45 ","data":[{"name":"Sanjay","state":"Haryana","address":"Gurugram","mobile":1234567890,"adhar_no":1234567890,"pan_no":"ASDF123456"},{"name":"Abhi","state":"Haryana","address":"Rohtak","mobile":1234567890,"adhar_no":1234567890,"pan_no":"ASDF123456"},{"name":"ram dutt gupta","state":"Haryana","address":"Ambala","mobile":1234567890,"adhar_no":1234567890,"pan_no":"ASDF123456"}]},{"state":"Jammu and Kashmir","latitude" : 32.7266   ,"longitude" : 74.8570 , "total" : 20 ","data":[{"name":"khadak singh","state":"Jammu and Kashmir","address":"Jammu","mobile":1234567890,"adhar_no":1234567890,"pan_no":"ASDF123456"},{"name":"gurmit singh","state":"Jammu and Kashmir","address":"Anantnag","mobile":1234567890,"adhar_no":1234567890,"pan_no":"ASDF123456"}]},{"state":"Karnataka","latitude" : 15.3173,"longitude" : 75.7139 ,"total" : 29,"data":[{"name":"chanderpal","state":"Karnataka","address":"Bengaluru","mobile":1234567890,"adhar_no":1234567890,"pan_no":"ASDF123456"},{"name":"aman","state":"Karnataka","address":"Mysuru","mobile":1234567890,"adhar_no":1234567890,"pan_no":"ASDF123456"},{"name":"Khurshid","state":"Karnataka","address":"Hubli","mobile":1234567890,"adhar_no":1234567890,"pan_no":"ASDF123456"}]},{"state":"Maharashtra","latitude" : 19.7515,"longitude" : 75.7139 ,"total" : 40,"data":[{"name":"Rajeev","state":"Maharashtra","address":"Nashik","mobile":1234567890,"adhar_no":1234567890,"pan_no":"ASDF123456"},{"name":"Durhesh","state":"Maharashtra","address":"Mumbai","mobile":1234567890,"adhar_no":1234567890,"pan_no":"ASDF123456"},{"name":"Rohit","state":"Maharashtra","address":"Pune","mobile":1234567890,"adhar_no":1234567890,"pan_no":"ASDF123456"}]},{"state":"Meghalaya","latitude" : 25.4670   ,"longitude" : 91.3662 ,"total" : 10,"data":[{"name":"nahar singh","state":"Meghalaya","address":"Shillong","mobile":1234567890,"adhar_no":1234567890,"pan_no":"ASDF123456"},{"name":"ram kumar","state":"Meghalaya","address":"Guwahati","mobile":1234567890,"adhar_no":1234567890,"pan_no":"ASDF123456"}]},{"state":"Punjab","latitude" : 31.6340   ,"longitude" : 74.8723 ,"total" : 60,"data":[{"name":"Sundar Pal","state":"Punjab","address":"Amritsar","mobile":1234567890,"adhar_no":1234567890,"pan_no":"ASDF123456"},{"name":"maansingh aswal","state":"Punjab","address":"Ludhiyana","mobile":1234567890,"adhar_no":1234567890,"pan_no":"ASDF123456"},{"name":"santosh","state":"Punjab","address":"Bhatinda","mobile":1234567890,"adhar_no":1234567890,"pan_no":"ASDF123456"}]},{"state":"Rajasthan","latitude" : 27.0238   ,"longitude" : 74.2179 ,"total" : 34,"data":[{"name":"Dinesh","state":"Rajasthan","address":"Udaipur","mobile":1234567890,"adhar_no":1234567890,"pan_no":"ASDF123456"},{"name":"Gulshan","state":"Rajasthan","address":"Jaipur","mobile":1234567890,"adhar_no":1234567890,"pan_no":"ASDF123456"},{"name":"Arvind Kumar Yadav","state":"Rajasthan","address":"Jodhpur","mobile":1234567890,"adhar_no":1234567890,"pan_no":"ASDF123456"},{"name":"Arvind Kumar Yadav","state":"Rajasthan","address":"Jodhpur","mobile":1234567890,"adhar_no":1234567890,"pan_no":"ASDF123456"}]},{"state":"Tamil Nadu","latitude" : 11.1271  ,"longitude" : 78.6569 ,"total" : 24,"data":[{"name":"Hemant","state":"Tamil Nadu","address":"Madurai","mobile":1234567890,"adhar_no":1234567890,"pan_no":"ASDF123456"},{"name":"Shivam","state":"Tamil Nadu","address":"Coimbatore","mobile":1234567890,"adhar_no":1234567890,"pan_no":"ASDF123456"}]},{"state":"West Bengal","latitude" : 22.9868  ,"longitude" : 87.8550 ,"total" :45,"data":[{"name":"yash mittal","state":"West Bengal","address":"Kolkata","mobile":1234567890,"adhar_no":1234567890,"pan_no":"ASDF123456"},{"name":"aakash","state":"West Bengal","address":"Durgapur","mobile":1234567890,"adhar_no":1234567890,"pan_no":"ASDF123456"},{"name":"supriyal sen","state":"West Bengal","address":"Darjeeling","mobile":1234567890,"adhar_no":1234567890,"pan_no":"ASDF123456"}]}]}
